{"city_name":"Sohag","city_timezone":7200,"time_utc":1743772712,"city_country":"EG","sunrise_time_utc":1743738047,"sunset_time_utc":1743783075,"sea_level_meter":1011,"temp_celisus":30.08,"temp_min_celisus":30.08,"temp_max_celisus":30.08,"humidity_gram_m3":15,"pressure_pascal":1011,"latitude":31.6948,"longtiude":26.557,"weather_description":"clear sky"}
{"city_name":"Sīwah","city_timezone":7200,"time_utc":1743772712,"city_country":"EG","sunrise_time_utc":1743739441,"sunset_time_utc":1743784645,"sea_level_meter":1012,"temp_celisus":26.84,"temp_min_celisus":26.84,"temp_max_celisus":26.84,"humidity_gram_m3":22,"pressure_pascal":1012,"latitude":25.5195,"longtiude":29.2041,"weather_description":"clear sky"}
{"city_name":"Shibîn el-Qanâṭir","city_timezone":7200,"time_utc":1743772728,"city_country":"EG","sunrise_time_utc":1743738012,"sunset_time_utc":1743783290,"sea_level_meter":1011,"temp_celisus":24.15,"temp_min_celisus":24.15,"temp_max_celisus":24.45,"humidity_gram_m3":21,"pressure_pascal":1011,"latitude":31.3202,"longtiude":30.3127,"weather_description":"clear sky"}
{"city_name":"Sharm el Sheikh","city_timezone":7200,"time_utc":1743772728,"city_country":"EG","sunrise_time_utc":1743737379,"sunset_time_utc":1743782490,"sea_level_meter":1008,"temp_celisus":26.02,"temp_min_celisus":26.02,"temp_max_celisus":26.02,"humidity_gram_m3":34,"pressure_pascal":1008,"latitude":34.305,"longtiude":27.8518,"weather_description":"clear sky"}
{"city_name":"North Sinai Governorate","city_timezone":7200,"time_utc":1743772728,"city_country":"EG","sunrise_time_utc":1743737434,"sunset_time_utc":1743782725,"sea_level_meter":1012,"temp_celisus":22.17,"temp_min_celisus":22.17,"temp_max_celisus":22.17,"humidity_gram_m3":28,"pressure_pascal":1012,"latitude":33.7,"longtiude":30.5,"weather_description":"clear sky"}
{"city_name":"Quwaysinā","city_timezone":7200,"time_utc":1743772729,"city_country":"EG","sunrise_time_utc":1743738042,"sunset_time_utc":1743783338,"sea_level_meter":1011,"temp_celisus":27.46,"temp_min_celisus":27.46,"temp_max_celisus":27.46,"humidity_gram_m3":20,"pressure_pascal":1011,"latitude":31.1578,"longtiude":30.5648,"weather_description":"clear sky"}
{"city_name":"Qena Governorate","city_timezone":7200,"time_utc":1743772729,"city_country":"EG","sunrise_time_utc":1743737818,"sunset_time_utc":1743782798,"sea_level_meter":1010,"temp_celisus":32.08,"temp_min_celisus":32.08,"temp_max_celisus":32.08,"humidity_gram_m3":11,"pressure_pascal":1010,"latitude":32.75,"longtiude":25.8,"weather_description":"clear sky"}
{"city_name":"Qaşr al Farāfirah","city_timezone":7200,"time_utc":1743772729,"city_country":"EG","sunrise_time_utc":1743738924,"sunset_time_utc":1743783985,"sea_level_meter":1012,"temp_celisus":29.44,"temp_min_celisus":29.44,"temp_max_celisus":29.44,"humidity_gram_m3":14,"pressure_pascal":1012,"latitude":27.9698,"longtiude":27.0568,"weather_description":"clear sky"}
{"city_name":"Qalyub","city_timezone":7200,"time_utc":1743772729,"city_country":"EG","sunrise_time_utc":1743738044,"sunset_time_utc":1743783313,"sea_level_meter":1012,"temp_celisus":24.14,"temp_min_celisus":24.14,"temp_max_celisus":24.44,"humidity_gram_m3":33,"pressure_pascal":1012,"latitude":31.2056,"longtiude":30.1792,"weather_description":"clear sky"}
{"city_name":"Matruh Governorate","city_timezone":7200,"time_utc":1743772730,"city_country":"EG","sunrise_time_utc":1743738949,"sunset_time_utc":1743784186,"sea_level_meter":1013,"temp_celisus":25.92,"temp_min_celisus":25.92,"temp_max_celisus":25.92,"humidity_gram_m3":25,"pressure_pascal":1013,"latitude":27.5,"longtiude":29.7,"weather_description":"clear sky"}
{"city_name":"Marsá Maţrūḩ","city_timezone":7200,"time_utc":1743772730,"city_country":"EG","sunrise_time_utc":1743738952,"sunset_time_utc":1743784305,"sea_level_meter":1015,"temp_celisus":18.89,"temp_min_celisus":18.89,"temp_max_celisus":18.89,"humidity_gram_m3":58,"pressure_pascal":1015,"latitude":27.2453,"longtiude":31.3525,"weather_description":"clear sky"}
{"city_name":"Damietta Governorate","city_timezone":7200,"time_utc":1743772730,"city_country":"EG","sunrise_time_utc":1743737872,"sunset_time_utc":1743783224,"sea_level_meter":1013,"temp_celisus":20.35,"temp_min_celisus":20.35,"temp_max_celisus":20.35,"humidity_gram_m3":52,"pressure_pascal":1013,"latitude":31.75,"longtiude":31.35,"weather_description":"clear sky"}
{"city_name":"Damanhur","city_timezone":7200,"time_utc":1743772731,"city_country":"EG","sunrise_time_utc":1743738190,"sunset_time_utc":1743783520,"sea_level_meter":1013,"temp_celisus":23.84,"temp_min_celisus":23.84,"temp_max_celisus":23.84,"humidity_gram_m3":32,"pressure_pascal":1013,"latitude":30.4691,"longtiude":31.0392,"weather_description":"clear sky"}
{"city_name":"Port Said","city_timezone":7200,"time_utc":1743772731,"city_country":"EG","sunrise_time_utc":1743737747,"sunset_time_utc":1743783092,"sea_level_meter":1014,"temp_celisus":17.7,"temp_min_celisus":17.7,"temp_max_celisus":17.7,"humidity_gram_m3":72,"pressure_pascal":1014,"latitude":32.2841,"longtiude":31.2565,"weather_description":"clear sky"}
{"city_name":"Safaga","city_timezone":7200,"time_utc":1743772731,"city_country":"EG","sunrise_time_utc":1743737504,"sunset_time_utc":1743782542,"sea_level_meter":1008,"temp_celisus":26.28,"temp_min_celisus":26.28,"temp_max_celisus":26.28,"humidity_gram_m3":41,"pressure_pascal":1008,"latitude":33.9365,"longtiude":26.7292,"weather_description":"clear sky"}
{"city_name":"Bilqās","city_timezone":7200,"time_utc":1743772732,"city_country":"EG","sunrise_time_utc":1743737971,"sunset_time_utc":1743783313,"sea_level_meter":1013,"temp_celisus":23.45,"temp_min_celisus":23.45,"temp_max_celisus":23.45,"humidity_gram_m3":33,"pressure_pascal":1013,"latitude":31.358,"longtiude":31.2145,"weather_description":"clear sky"}
{"city_name":"Beni Suweif Governorate","city_timezone":7200,"time_utc":1743772732,"city_country":"EG","sunrise_time_utc":1743738233,"sunset_time_utc":1743783415,"sea_level_meter":1012,"temp_celisus":25.49,"temp_min_celisus":25.49,"temp_max_celisus":25.49,"humidity_gram_m3":22,"pressure_pascal":1012,"latitude":30.6,"longtiude":28.9,"weather_description":"clear sky"}
{"city_name":"Banhā","city_timezone":7200,"time_utc":1743772732,"city_country":"EG","sunrise_time_utc":1743738040,"sunset_time_utc":1743783329,"sea_level_meter":1011,"temp_celisus":27.44,"temp_min_celisus":27.44,"temp_max_celisus":27.44,"humidity_gram_m3":20,"pressure_pascal":1011,"latitude":31.1786,"longtiude":30.4591,"weather_description":"clear sky"}
{"city_name":"Zagazig","city_timezone":7200,"time_utc":1743772732,"city_country":"EG","sunrise_time_utc":1743737958,"sunset_time_utc":1743783256,"sea_level_meter":1011,"temp_celisus":27.46,"temp_min_celisus":27.46,"temp_max_celisus":27.46,"humidity_gram_m3":20,"pressure_pascal":1011,"latitude":31.502,"longtiude":30.5877,"weather_description":"few clouds"}
{"city_name":"Asyut Governorate","city_timezone":7200,"time_utc":1743772733,"city_country":"EG","sunrise_time_utc":1743738169,"sunset_time_utc":1743783239,"sea_level_meter":1011,"temp_celisus":29.43,"temp_min_celisus":29.43,"temp_max_celisus":29.43,"humidity_gram_m3":16,"pressure_pascal":1011,"latitude":31.1,"longtiude":27.2,"weather_description":"clear sky"}
{"city_name":"Aswan Governorate","city_timezone":7200,"time_utc":1743772733,"city_country":"EG","sunrise_time_utc":1743737860,"sunset_time_utc":1743782684,"sea_level_meter":1010,"temp_celisus":26.26,"temp_min_celisus":26.26,"temp_max_celisus":26.26,"humidity_gram_m3":26,"pressure_pascal":1010,"latitude":32.9,"longtiude":23.3,"weather_description":"clear sky"}
{"city_name":"Aswān","city_timezone":7200,"time_utc":1743772733,"city_country":"EG","sunrise_time_utc":1743737834,"sunset_time_utc":1743782707,"sea_level_meter":1009,"temp_celisus":32.77,"temp_min_celisus":32.77,"temp_max_celisus":32.77,"humidity_gram_m3":9,"pressure_pascal":1009,"latitude":32.907,"longtiude":24.0934,"weather_description":"clear sky"}
{"city_name":"Suez","city_timezone":7200,"time_utc":1743772734,"city_country":"EG","sunrise_time_utc":1743737734,"sunset_time_utc":1743782989,"sea_level_meter":1012,"temp_celisus":25.53,"temp_min_celisus":25.53,"temp_max_celisus":25.53,"humidity_gram_m3":24,"pressure_pascal":1012,"latitude":32.5263,"longtiude":29.9737,"weather_description":"clear sky"}
{"city_name":"Sharqia Province","city_timezone":7200,"time_utc":1743772734,"city_country":"EG","sunrise_time_utc":1743737883,"sunset_time_utc":1743783189,"sea_level_meter":1012,"temp_celisus":24.53,"temp_min_celisus":24.53,"temp_max_celisus":24.53,"humidity_gram_m3":35,"pressure_pascal":1012,"latitude":31.8,"longtiude":30.7,"weather_description":"broken clouds"}
{"city_name":"Al Wāsiţah","city_timezone":7200,"time_utc":1743772734,"city_country":"EG","sunrise_time_utc":1743738073,"sunset_time_utc":1743783284,"sea_level_meter":1012,"temp_celisus":26.42,"temp_min_celisus":26.42,"temp_max_celisus":26.42,"humidity_gram_m3":19,"pressure_pascal":1012,"latitude":31.2056,"longtiude":29.3378,"weather_description":"clear sky"}
{"city_name":"New Valley Governorate","city_timezone":7200,"time_utc":1743772735,"city_country":"EG","sunrise_time_utc":1743738773,"sunset_time_utc":1743783690,"sea_level_meter":1012,"temp_celisus":29.87,"temp_min_celisus":29.87,"temp_max_celisus":29.87,"humidity_gram_m3":12,"pressure_pascal":1012,"latitude":28.9,"longtiude":24.8,"weather_description":"clear sky"}
{"city_name":"Luxor","city_timezone":7200,"time_utc":1743772721,"city_country":"EG","sunrise_time_utc":1743737847,"sunset_time_utc":1743782820,"sea_level_meter":1010,"temp_celisus":31.79,"temp_min_celisus":31.79,"temp_max_celisus":31.79,"humidity_gram_m3":11,"pressure_pascal":1010,"latitude":32.6421,"longtiude":25.6989,"weather_description":"clear sky"}
{"city_name":"El Qoseir","city_timezone":7200,"time_utc":1743772735,"city_country":"EG","sunrise_time_utc":1743737442,"sunset_time_utc":1743782440,"sea_level_meter":1010,"temp_celisus":25.28,"temp_min_celisus":25.28,"temp_max_celisus":25.28,"humidity_gram_m3":41,"pressure_pascal":1010,"latitude":34.2779,"longtiude":26.1043,"weather_description":"clear sky"}
{"city_name":"Al Qanāţir al Khayrīyah","city_timezone":7200,"time_utc":1743772735,"city_country":"EG","sunrise_time_utc":1743738060,"sunset_time_utc":1743783330,"sea_level_meter":1012,"temp_celisus":24.15,"temp_min_celisus":24.15,"temp_max_celisus":24.45,"humidity_gram_m3":23,"pressure_pascal":1012,"latitude":31.137,"longtiude":30.1933,"weather_description":"clear sky"}
{"city_name":"Qalyubia Governorate","city_timezone":7200,"time_utc":1743772736,"city_country":"EG","sunrise_time_utc":1743738029,"sunset_time_utc":1743783307,"sea_level_meter":1011,"temp_celisus":24.2,"temp_min_celisus":24.2,"temp_max_celisus":24.49,"humidity_gram_m3":22,"pressure_pascal":1011,"latitude":31.25,"longtiude":30.3,"weather_description":"clear sky"}
{"city_name":"Cairo","city_timezone":7200,"time_utc":1743772438,"city_country":"EG","sunrise_time_utc":1743738037,"sunset_time_utc":1743783299,"sea_level_meter":1012,"temp_celisus":23.42,"temp_min_celisus":23.01,"temp_max_celisus":23.42,"humidity_gram_m3":35,"pressure_pascal":1012,"latitude":31.2497,"longtiude":30.0626,"weather_description":"scattered clouds"}
{"city_name":"Minya Governorate","city_timezone":7200,"time_utc":1743772736,"city_country":"EG","sunrise_time_utc":1743738403,"sunset_time_utc":1743783532,"sea_level_meter":1012,"temp_celisus":27.1,"temp_min_celisus":27.1,"temp_max_celisus":27.1,"humidity_gram_m3":20,"pressure_pascal":1012,"latitude":30.0,"longtiude":28.1,"weather_description":"clear sky"}
{"city_name":"Monufia Governorate","city_timezone":7200,"time_utc":1743772737,"city_country":"EG","sunrise_time_utc":1743738082,"sunset_time_utc":1743783374,"sea_level_meter":1011,"temp_celisus":27.29,"temp_min_celisus":27.29,"temp_max_celisus":27.29,"humidity_gram_m3":21,"pressure_pascal":1011,"latitude":31.0,"longtiude":30.5,"weather_description":"clear sky"}
{"city_name":"Al Maţarīyah","city_timezone":7200,"time_utc":1743772737,"city_country":"EG","sunrise_time_utc":1743737811,"sunset_time_utc":1743783150,"sea_level_meter":1013,"temp_celisus":18.45,"temp_min_celisus":18.45,"temp_max_celisus":18.45,"humidity_gram_m3":66,"pressure_pascal":1013,"latitude":32.0311,"longtiude":31.1829,"weather_description":"clear sky"}
{"city_name":"Al Mansurah","city_timezone":7200,"time_utc":1743772737,"city_country":"EG","sunrise_time_utc":1743737972,"sunset_time_utc":1743783301,"sea_level_meter":1012,"temp_celisus":25.11,"temp_min_celisus":25.11,"temp_max_celisus":25.11,"humidity_gram_m3":26,"pressure_pascal":1012,"latitude":31.3807,"longtiude":31.0364,"weather_description":"clear sky"}
{"city_name":"Al Maḩallah al Kubrá","city_timezone":7200,"time_utc":1743772738,"city_country":"EG","sunrise_time_utc":1743738026,"sunset_time_utc":1743783351,"sea_level_meter":1012,"temp_celisus":24.56,"temp_min_celisus":24.56,"temp_max_celisus":24.56,"humidity_gram_m3":30,"pressure_pascal":1012,"latitude":31.165,"longtiude":30.9745,"weather_description":"clear sky"}
{"city_name":"Giza","city_timezone":7200,"time_utc":1743772730,"city_country":"EG","sunrise_time_utc":1743738048,"sunset_time_utc":1743783306,"sea_level_meter":1012,"temp_celisus":24.41,"temp_min_celisus":24.11,"temp_max_celisus":24.41,"humidity_gram_m3":22,"pressure_pascal":1012,"latitude":31.2109,"longtiude":30.0081,"weather_description":"clear sky"}
{"city_name":"Ismailia Governorate","city_timezone":7200,"time_utc":1743772738,"city_country":"EG","sunrise_time_utc":1743737743,"sunset_time_utc":1743783041,"sea_level_meter":1012,"temp_celisus":25.01,"temp_min_celisus":25.01,"temp_max_celisus":25.01,"humidity_gram_m3":27,"pressure_pascal":1012,"latitude":32.4,"longtiude":30.6,"weather_description":"clear sky"}
{"city_name":"Alexandria","city_timezone":7200,"time_utc":1743772541,"city_country":"EG","sunrise_time_utc":1743738307,"sunset_time_utc":1743783650,"sea_level_meter":1014,"temp_celisus":19.1,"temp_min_celisus":19.1,"temp_max_celisus":19.1,"humidity_gram_m3":61,"pressure_pascal":1014,"latitude":29.9553,"longtiude":31.2156,"weather_description":"clear sky"}
{"city_name":"Hurghada","city_timezone":7200,"time_utc":1743772739,"city_country":"EG","sunrise_time_utc":1743737517,"sunset_time_utc":1743782589,"sea_level_meter":1009,"temp_celisus":25.85,"temp_min_celisus":25.85,"temp_max_celisus":25.85,"humidity_gram_m3":35,"pressure_pascal":1009,"latitude":33.8129,"longtiude":27.2574,"weather_description":"clear sky"}
{"city_name":"Gharbia Governorate","city_timezone":7200,"time_utc":1743772739,"city_country":"EG","sunrise_time_utc":1743738068,"sunset_time_utc":1743783388,"sea_level_meter":1012,"temp_celisus":25.13,"temp_min_celisus":25.13,"temp_max_celisus":25.13,"humidity_gram_m3":28,"pressure_pascal":1012,"latitude":31.0,"longtiude":30.9,"weather_description":"clear sky"}
{"city_name":"Faiyum Governorate","city_timezone":7200,"time_utc":1743772739,"city_country":"EG","sunrise_time_utc":1743738243,"sunset_time_utc":1743783452,"sea_level_meter":1012,"temp_celisus":26.47,"temp_min_celisus":26.47,"temp_max_celisus":26.47,"humidity_gram_m3":21,"pressure_pascal":1012,"latitude":30.5,"longtiude":29.3,"weather_description":"clear sky"}
{"city_name":"Beheira","city_timezone":7200,"time_utc":1743772740,"city_country":"EG","sunrise_time_utc":1743738270,"sunset_time_utc":1743783569,"sea_level_meter":1012,"temp_celisus":25.49,"temp_min_celisus":25.49,"temp_max_celisus":25.49,"humidity_gram_m3":24,"pressure_pascal":1012,"latitude":30.2,"longtiude":30.6,"weather_description":"clear sky"}
{"city_name":"Red Sea","city_timezone":7200,"time_utc":1743772705,"city_country":"EG","sunrise_time_utc":1743737525,"sunset_time_utc":1743782593,"sea_level_meter":1009,"temp_celisus":26.92,"temp_min_celisus":26.92,"temp_max_celisus":26.92,"humidity_gram_m3":30,"pressure_pascal":1009,"latitude":33.7884,"longtiude":27.1862,"weather_description":"clear sky"}
{"city_name":"El Gouna","city_timezone":7200,"time_utc":1743772711,"city_country":"EG","sunrise_time_utc":1743737544,"sunset_time_utc":1743782626,"sea_level_meter":1009,"temp_celisus":26.34,"temp_min_celisus":26.34,"temp_max_celisus":26.34,"humidity_gram_m3":35,"pressure_pascal":1009,"latitude":33.6782,"longtiude":27.3942,"weather_description":"clear sky"}
{"city_name":"Makadi Bay","city_timezone":7200,"time_utc":1743772741,"city_country":"EG","sunrise_time_utc":1743737504,"sunset_time_utc":1743782560,"sea_level_meter":1008,"temp_celisus":25.2,"temp_min_celisus":25.2,"temp_max_celisus":25.2,"humidity_gram_m3":46,"pressure_pascal":1008,"latitude":33.8995,"longtiude":26.9912,"weather_description":"clear sky"}
{"city_name":"Port el Ghalib","city_timezone":7200,"time_utc":1743772741,"city_country":"EG","sunrise_time_utc":1743737513,"sunset_time_utc":1743782586,"sea_level_meter":1009,"temp_celisus":25.23,"temp_min_celisus":25.23,"temp_max_celisus":25.23,"humidity_gram_m3":39,"pressure_pascal":1009,"latitude":33.8268,"longtiude":27.2543,"weather_description":"clear sky"}
{"city_name":"Naama Bay","city_timezone":7200,"time_utc":1743772741,"city_country":"EG","sunrise_time_utc":1743737371,"sunset_time_utc":1743782487,"sea_level_meter":1008,"temp_celisus":26.39,"temp_min_celisus":26.39,"temp_max_celisus":26.39,"humidity_gram_m3":34,"pressure_pascal":1008,"latitude":34.3295,"longtiude":27.9138,"weather_description":"clear sky"}
{"city_name":"Ain Sukhna","city_timezone":7200,"time_utc":1743772742,"city_country":"EG","sunrise_time_utc":1743737797,"sunset_time_utc":1743783027,"sea_level_meter":1012,"temp_celisus":24.08,"temp_min_celisus":24.08,"temp_max_celisus":24.08,"humidity_gram_m3":29,"pressure_pascal":1012,"latitude":32.3167,"longtiude":29.6002,"weather_description":"clear sky"}
{"city_name":"Sohag","city_timezone":7200,"time_utc":1743772801,"city_country":"EG","sunrise_time_utc":1743738047,"sunset_time_utc":1743783075,"sea_level_meter":1011,"temp_celisus":30.08,"temp_min_celisus":30.08,"temp_max_celisus":30.08,"humidity_gram_m3":15,"pressure_pascal":1011,"latitude":31.6948,"longtiude":26.557,"weather_description":"clear sky"}
{"city_name":"Sīwah","city_timezone":7200,"time_utc":1743772802,"city_country":"EG","sunrise_time_utc":1743739441,"sunset_time_utc":1743784645,"sea_level_meter":1012,"temp_celisus":26.84,"temp_min_celisus":26.84,"temp_max_celisus":26.84,"humidity_gram_m3":22,"pressure_pascal":1012,"latitude":25.5195,"longtiude":29.2041,"weather_description":"clear sky"}
{"city_name":"Shibîn el-Qanâṭir","city_timezone":7200,"time_utc":1743772802,"city_country":"EG","sunrise_time_utc":1743738012,"sunset_time_utc":1743783290,"sea_level_meter":1011,"temp_celisus":24.15,"temp_min_celisus":24.15,"temp_max_celisus":24.45,"humidity_gram_m3":21,"pressure_pascal":1011,"latitude":31.3202,"longtiude":30.3127,"weather_description":"clear sky"}
{"city_name":"Sharm el Sheikh","city_timezone":7200,"time_utc":1743772802,"city_country":"EG","sunrise_time_utc":1743737379,"sunset_time_utc":1743782490,"sea_level_meter":1008,"temp_celisus":26.02,"temp_min_celisus":26.02,"temp_max_celisus":26.02,"humidity_gram_m3":34,"pressure_pascal":1008,"latitude":34.305,"longtiude":27.8518,"weather_description":"clear sky"}
{"city_name":"North Sinai Governorate","city_timezone":7200,"time_utc":1743772803,"city_country":"EG","sunrise_time_utc":1743737434,"sunset_time_utc":1743782725,"sea_level_meter":1012,"temp_celisus":22.17,"temp_min_celisus":22.17,"temp_max_celisus":22.17,"humidity_gram_m3":28,"pressure_pascal":1012,"latitude":33.7,"longtiude":30.5,"weather_description":"clear sky"}
{"city_name":"Quwaysinā","city_timezone":7200,"time_utc":1743772803,"city_country":"EG","sunrise_time_utc":1743738042,"sunset_time_utc":1743783338,"sea_level_meter":1011,"temp_celisus":27.46,"temp_min_celisus":27.46,"temp_max_celisus":27.46,"humidity_gram_m3":20,"pressure_pascal":1011,"latitude":31.1578,"longtiude":30.5648,"weather_description":"clear sky"}
{"city_name":"Qena Governorate","city_timezone":7200,"time_utc":1743772803,"city_country":"EG","sunrise_time_utc":1743737818,"sunset_time_utc":1743782798,"sea_level_meter":1010,"temp_celisus":32.08,"temp_min_celisus":32.08,"temp_max_celisus":32.08,"humidity_gram_m3":11,"pressure_pascal":1010,"latitude":32.75,"longtiude":25.8,"weather_description":"clear sky"}
{"city_name":"Qaşr al Farāfirah","city_timezone":7200,"time_utc":1743772804,"city_country":"EG","sunrise_time_utc":1743738924,"sunset_time_utc":1743783985,"sea_level_meter":1012,"temp_celisus":29.44,"temp_min_celisus":29.44,"temp_max_celisus":29.44,"humidity_gram_m3":14,"pressure_pascal":1012,"latitude":27.9698,"longtiude":27.0568,"weather_description":"clear sky"}
{"city_name":"Qalyub","city_timezone":7200,"time_utc":1743772804,"city_country":"EG","sunrise_time_utc":1743738044,"sunset_time_utc":1743783313,"sea_level_meter":1012,"temp_celisus":24.14,"temp_min_celisus":24.14,"temp_max_celisus":24.44,"humidity_gram_m3":33,"pressure_pascal":1012,"latitude":31.2056,"longtiude":30.1792,"weather_description":"clear sky"}
{"city_name":"Matruh Governorate","city_timezone":7200,"time_utc":1743772804,"city_country":"EG","sunrise_time_utc":1743738949,"sunset_time_utc":1743784186,"sea_level_meter":1013,"temp_celisus":25.92,"temp_min_celisus":25.92,"temp_max_celisus":25.92,"humidity_gram_m3":25,"pressure_pascal":1013,"latitude":27.5,"longtiude":29.7,"weather_description":"clear sky"}
{"city_name":"Marsá Maţrūḩ","city_timezone":7200,"time_utc":1743772805,"city_country":"EG","sunrise_time_utc":1743738952,"sunset_time_utc":1743784305,"sea_level_meter":1015,"temp_celisus":18.89,"temp_min_celisus":18.89,"temp_max_celisus":18.89,"humidity_gram_m3":58,"pressure_pascal":1015,"latitude":27.2453,"longtiude":31.3525,"weather_description":"clear sky"}
{"city_name":"Damietta Governorate","city_timezone":7200,"time_utc":1743772805,"city_country":"EG","sunrise_time_utc":1743737872,"sunset_time_utc":1743783224,"sea_level_meter":1013,"temp_celisus":20.35,"temp_min_celisus":20.35,"temp_max_celisus":20.35,"humidity_gram_m3":52,"pressure_pascal":1013,"latitude":31.75,"longtiude":31.35,"weather_description":"clear sky"}
{"city_name":"Damanhur","city_timezone":7200,"time_utc":1743772806,"city_country":"EG","sunrise_time_utc":1743738190,"sunset_time_utc":1743783520,"sea_level_meter":1013,"temp_celisus":23.84,"temp_min_celisus":23.84,"temp_max_celisus":23.84,"humidity_gram_m3":32,"pressure_pascal":1013,"latitude":30.4691,"longtiude":31.0392,"weather_description":"clear sky"}
{"city_name":"Port Said","city_timezone":7200,"time_utc":1743772685,"city_country":"EG","sunrise_time_utc":1743737747,"sunset_time_utc":1743783092,"sea_level_meter":1014,"temp_celisus":17.9,"temp_min_celisus":17.9,"temp_max_celisus":17.9,"humidity_gram_m3":72,"pressure_pascal":1014,"latitude":32.2841,"longtiude":31.2565,"weather_description":"clear sky"}
{"city_name":"Safaga","city_timezone":7200,"time_utc":1743772806,"city_country":"EG","sunrise_time_utc":1743737504,"sunset_time_utc":1743782542,"sea_level_meter":1008,"temp_celisus":26.28,"temp_min_celisus":26.28,"temp_max_celisus":26.28,"humidity_gram_m3":41,"pressure_pascal":1008,"latitude":33.9365,"longtiude":26.7292,"weather_description":"clear sky"}
{"city_name":"Bilqās","city_timezone":7200,"time_utc":1743772807,"city_country":"EG","sunrise_time_utc":1743737971,"sunset_time_utc":1743783313,"sea_level_meter":1013,"temp_celisus":23.45,"temp_min_celisus":23.45,"temp_max_celisus":23.45,"humidity_gram_m3":33,"pressure_pascal":1013,"latitude":31.358,"longtiude":31.2145,"weather_description":"clear sky"}
{"city_name":"Beni Suweif Governorate","city_timezone":7200,"time_utc":1743772807,"city_country":"EG","sunrise_time_utc":1743738233,"sunset_time_utc":1743783415,"sea_level_meter":1012,"temp_celisus":25.49,"temp_min_celisus":25.49,"temp_max_celisus":25.49,"humidity_gram_m3":22,"pressure_pascal":1012,"latitude":30.6,"longtiude":28.9,"weather_description":"clear sky"}
{"city_name":"Banhā","city_timezone":7200,"time_utc":1743772807,"city_country":"EG","sunrise_time_utc":1743738040,"sunset_time_utc":1743783329,"sea_level_meter":1011,"temp_celisus":27.44,"temp_min_celisus":27.44,"temp_max_celisus":27.44,"humidity_gram_m3":20,"pressure_pascal":1011,"latitude":31.1786,"longtiude":30.4591,"weather_description":"clear sky"}
{"city_name":"Zagazig","city_timezone":7200,"time_utc":1743772513,"city_country":"EG","sunrise_time_utc":1743737958,"sunset_time_utc":1743783256,"sea_level_meter":1011,"temp_celisus":27.22,"temp_min_celisus":27.22,"temp_max_celisus":27.22,"humidity_gram_m3":21,"pressure_pascal":1011,"latitude":31.502,"longtiude":30.5877,"weather_description":"few clouds"}
{"city_name":"Asyut Governorate","city_timezone":7200,"time_utc":1743772808,"city_country":"EG","sunrise_time_utc":1743738169,"sunset_time_utc":1743783239,"sea_level_meter":1011,"temp_celisus":29.43,"temp_min_celisus":29.43,"temp_max_celisus":29.43,"humidity_gram_m3":16,"pressure_pascal":1011,"latitude":31.1,"longtiude":27.2,"weather_description":"clear sky"}
{"city_name":"Aswan Governorate","city_timezone":7200,"time_utc":1743772808,"city_country":"EG","sunrise_time_utc":1743737860,"sunset_time_utc":1743782684,"sea_level_meter":1010,"temp_celisus":26.26,"temp_min_celisus":26.26,"temp_max_celisus":26.26,"humidity_gram_m3":26,"pressure_pascal":1010,"latitude":32.9,"longtiude":23.3,"weather_description":"clear sky"}
{"city_name":"Aswān","city_timezone":7200,"time_utc":1743772809,"city_country":"EG","sunrise_time_utc":1743737834,"sunset_time_utc":1743782707,"sea_level_meter":1009,"temp_celisus":32.77,"temp_min_celisus":32.77,"temp_max_celisus":32.77,"humidity_gram_m3":9,"pressure_pascal":1009,"latitude":32.907,"longtiude":24.0934,"weather_description":"clear sky"}
{"city_name":"Suez","city_timezone":7200,"time_utc":1743772809,"city_country":"EG","sunrise_time_utc":1743737734,"sunset_time_utc":1743782989,"sea_level_meter":1012,"temp_celisus":25.53,"temp_min_celisus":25.53,"temp_max_celisus":25.53,"humidity_gram_m3":24,"pressure_pascal":1012,"latitude":32.5263,"longtiude":29.9737,"weather_description":"clear sky"}
{"city_name":"Sharqia Province","city_timezone":7200,"time_utc":1743772810,"city_country":"EG","sunrise_time_utc":1743737883,"sunset_time_utc":1743783189,"sea_level_meter":1012,"temp_celisus":24.53,"temp_min_celisus":24.53,"temp_max_celisus":24.53,"humidity_gram_m3":35,"pressure_pascal":1012,"latitude":31.8,"longtiude":30.7,"weather_description":"broken clouds"}
{"city_name":"Al Wāsiţah","city_timezone":7200,"time_utc":1743772810,"city_country":"EG","sunrise_time_utc":1743738073,"sunset_time_utc":1743783284,"sea_level_meter":1012,"temp_celisus":26.42,"temp_min_celisus":26.42,"temp_max_celisus":26.42,"humidity_gram_m3":19,"pressure_pascal":1012,"latitude":31.2056,"longtiude":29.3378,"weather_description":"clear sky"}
{"city_name":"New Valley Governorate","city_timezone":7200,"time_utc":1743772810,"city_country":"EG","sunrise_time_utc":1743738773,"sunset_time_utc":1743783690,"sea_level_meter":1012,"temp_celisus":29.87,"temp_min_celisus":29.87,"temp_max_celisus":29.87,"humidity_gram_m3":12,"pressure_pascal":1012,"latitude":28.9,"longtiude":24.8,"weather_description":"clear sky"}
{"city_name":"Luxor","city_timezone":7200,"time_utc":1743772764,"city_country":"EG","sunrise_time_utc":1743737847,"sunset_time_utc":1743782820,"sea_level_meter":1010,"temp_celisus":31.79,"temp_min_celisus":31.79,"temp_max_celisus":31.79,"humidity_gram_m3":11,"pressure_pascal":1010,"latitude":32.6421,"longtiude":25.6989,"weather_description":"clear sky"}
{"city_name":"El Qoseir","city_timezone":7200,"time_utc":1743772811,"city_country":"EG","sunrise_time_utc":1743737442,"sunset_time_utc":1743782440,"sea_level_meter":1010,"temp_celisus":25.28,"temp_min_celisus":25.28,"temp_max_celisus":25.28,"humidity_gram_m3":41,"pressure_pascal":1010,"latitude":34.2779,"longtiude":26.1043,"weather_description":"clear sky"}
{"city_name":"Al Qanāţir al Khayrīyah","city_timezone":7200,"time_utc":1743772811,"city_country":"EG","sunrise_time_utc":1743738060,"sunset_time_utc":1743783330,"sea_level_meter":1012,"temp_celisus":24.15,"temp_min_celisus":24.15,"temp_max_celisus":24.45,"humidity_gram_m3":23,"pressure_pascal":1012,"latitude":31.137,"longtiude":30.1933,"weather_description":"clear sky"}
{"city_name":"Qalyubia Governorate","city_timezone":7200,"time_utc":1743772812,"city_country":"EG","sunrise_time_utc":1743738029,"sunset_time_utc":1743783307,"sea_level_meter":1011,"temp_celisus":24.2,"temp_min_celisus":24.2,"temp_max_celisus":24.49,"humidity_gram_m3":22,"pressure_pascal":1011,"latitude":31.25,"longtiude":30.3,"weather_description":"clear sky"}
{"city_name":"Cairo","city_timezone":7200,"time_utc":1743772544,"city_country":"EG","sunrise_time_utc":1743738037,"sunset_time_utc":1743783299,"sea_level_meter":1012,"temp_celisus":23.42,"temp_min_celisus":23.01,"temp_max_celisus":23.42,"humidity_gram_m3":35,"pressure_pascal":1012,"latitude":31.2497,"longtiude":30.0626,"weather_description":"scattered clouds"}
{"city_name":"Minya Governorate","city_timezone":7200,"time_utc":1743772813,"city_country":"EG","sunrise_time_utc":1743738403,"sunset_time_utc":1743783532,"sea_level_meter":1012,"temp_celisus":27.1,"temp_min_celisus":27.1,"temp_max_celisus":27.1,"humidity_gram_m3":20,"pressure_pascal":1012,"latitude":30.0,"longtiude":28.1,"weather_description":"clear sky"}
{"city_name":"Monufia Governorate","city_timezone":7200,"time_utc":1743772813,"city_country":"EG","sunrise_time_utc":1743738082,"sunset_time_utc":1743783374,"sea_level_meter":1011,"temp_celisus":27.29,"temp_min_celisus":27.29,"temp_max_celisus":27.29,"humidity_gram_m3":21,"pressure_pascal":1011,"latitude":31.0,"longtiude":30.5,"weather_description":"clear sky"}
{"city_name":"Al Maţarīyah","city_timezone":7200,"time_utc":1743772813,"city_country":"EG","sunrise_time_utc":1743737811,"sunset_time_utc":1743783150,"sea_level_meter":1013,"temp_celisus":18.45,"temp_min_celisus":18.45,"temp_max_celisus":18.45,"humidity_gram_m3":66,"pressure_pascal":1013,"latitude":32.0311,"longtiude":31.1829,"weather_description":"clear sky"}
{"city_name":"Al Mansurah","city_timezone":7200,"time_utc":1743772814,"city_country":"EG","sunrise_time_utc":1743737972,"sunset_time_utc":1743783301,"sea_level_meter":1012,"temp_celisus":25.11,"temp_min_celisus":25.11,"temp_max_celisus":25.11,"humidity_gram_m3":26,"pressure_pascal":1012,"latitude":31.3807,"longtiude":31.0364,"weather_description":"clear sky"}
{"city_name":"Al Maḩallah al Kubrá","city_timezone":7200,"time_utc":1743772829,"city_country":"EG","sunrise_time_utc":1743738026,"sunset_time_utc":1743783351,"sea_level_meter":1012,"temp_celisus":24.56,"temp_min_celisus":24.56,"temp_max_celisus":24.56,"humidity_gram_m3":30,"pressure_pascal":1012,"latitude":31.165,"longtiude":30.9745,"weather_description":"clear sky"}
{"city_name":"Giza","city_timezone":7200,"time_utc":1743772830,"city_country":"EG","sunrise_time_utc":1743738048,"sunset_time_utc":1743783306,"sea_level_meter":1012,"temp_celisus":24.41,"temp_min_celisus":24.11,"temp_max_celisus":24.41,"humidity_gram_m3":22,"pressure_pascal":1012,"latitude":31.2109,"longtiude":30.0081,"weather_description":"clear sky"}
{"city_name":"Ismailia Governorate","city_timezone":7200,"time_utc":1743772830,"city_country":"EG","sunrise_time_utc":1743737743,"sunset_time_utc":1743783041,"sea_level_meter":1012,"temp_celisus":25.01,"temp_min_celisus":25.01,"temp_max_celisus":25.01,"humidity_gram_m3":27,"pressure_pascal":1012,"latitude":32.4,"longtiude":30.6,"weather_description":"clear sky"}
{"city_name":"Alexandria","city_timezone":7200,"time_utc":1743772799,"city_country":"EG","sunrise_time_utc":1743738307,"sunset_time_utc":1743783650,"sea_level_meter":1014,"temp_celisus":19.1,"temp_min_celisus":19.1,"temp_max_celisus":19.1,"humidity_gram_m3":61,"pressure_pascal":1014,"latitude":29.9553,"longtiude":31.2156,"weather_description":"clear sky"}
{"city_name":"Hurghada","city_timezone":7200,"time_utc":1743772630,"city_country":"EG","sunrise_time_utc":1743737517,"sunset_time_utc":1743782589,"sea_level_meter":1009,"temp_celisus":25.85,"temp_min_celisus":25.85,"temp_max_celisus":25.85,"humidity_gram_m3":35,"pressure_pascal":1009,"latitude":33.8129,"longtiude":27.2574,"weather_description":"clear sky"}
{"city_name":"Gharbia Governorate","city_timezone":7200,"time_utc":1743772831,"city_country":"EG","sunrise_time_utc":1743738068,"sunset_time_utc":1743783388,"sea_level_meter":1012,"temp_celisus":25.13,"temp_min_celisus":25.13,"temp_max_celisus":25.13,"humidity_gram_m3":28,"pressure_pascal":1012,"latitude":31.0,"longtiude":30.9,"weather_description":"clear sky"}
{"city_name":"Faiyum Governorate","city_timezone":7200,"time_utc":1743772831,"city_country":"EG","sunrise_time_utc":1743738243,"sunset_time_utc":1743783452,"sea_level_meter":1012,"temp_celisus":26.47,"temp_min_celisus":26.47,"temp_max_celisus":26.47,"humidity_gram_m3":21,"pressure_pascal":1012,"latitude":30.5,"longtiude":29.3,"weather_description":"clear sky"}
{"city_name":"Beheira","city_timezone":7200,"time_utc":1743772832,"city_country":"EG","sunrise_time_utc":1743738270,"sunset_time_utc":1743783569,"sea_level_meter":1012,"temp_celisus":25.49,"temp_min_celisus":25.49,"temp_max_celisus":25.49,"humidity_gram_m3":24,"pressure_pascal":1012,"latitude":30.2,"longtiude":30.6,"weather_description":"clear sky"}
{"city_name":"Red Sea","city_timezone":7200,"time_utc":1743772832,"city_country":"EG","sunrise_time_utc":1743737525,"sunset_time_utc":1743782593,"sea_level_meter":1009,"temp_celisus":26.92,"temp_min_celisus":26.92,"temp_max_celisus":26.92,"humidity_gram_m3":30,"pressure_pascal":1009,"latitude":33.7884,"longtiude":27.1862,"weather_description":"clear sky"}
{"city_name":"El Gouna","city_timezone":7200,"time_utc":1743772832,"city_country":"EG","sunrise_time_utc":1743737544,"sunset_time_utc":1743782626,"sea_level_meter":1009,"temp_celisus":26.34,"temp_min_celisus":26.34,"temp_max_celisus":26.34,"humidity_gram_m3":35,"pressure_pascal":1009,"latitude":33.6782,"longtiude":27.3942,"weather_description":"clear sky"}
{"city_name":"Makadi Bay","city_timezone":7200,"time_utc":1743772833,"city_country":"EG","sunrise_time_utc":1743737504,"sunset_time_utc":1743782560,"sea_level_meter":1008,"temp_celisus":25.2,"temp_min_celisus":25.2,"temp_max_celisus":25.2,"humidity_gram_m3":46,"pressure_pascal":1008,"latitude":33.8995,"longtiude":26.9912,"weather_description":"clear sky"}
{"city_name":"Port el Ghalib","city_timezone":7200,"time_utc":1743772833,"city_country":"EG","sunrise_time_utc":1743737513,"sunset_time_utc":1743782586,"sea_level_meter":1009,"temp_celisus":25.23,"temp_min_celisus":25.23,"temp_max_celisus":25.23,"humidity_gram_m3":39,"pressure_pascal":1009,"latitude":33.8268,"longtiude":27.2543,"weather_description":"clear sky"}
{"city_name":"Naama Bay","city_timezone":7200,"time_utc":1743772834,"city_country":"EG","sunrise_time_utc":1743737371,"sunset_time_utc":1743782487,"sea_level_meter":1008,"temp_celisus":26.39,"temp_min_celisus":26.39,"temp_max_celisus":26.39,"humidity_gram_m3":34,"pressure_pascal":1008,"latitude":34.3295,"longtiude":27.9138,"weather_description":"clear sky"}
{"city_name":"Ain Sukhna","city_timezone":7200,"time_utc":1743772834,"city_country":"EG","sunrise_time_utc":1743737797,"sunset_time_utc":1743783027,"sea_level_meter":1012,"temp_celisus":24.08,"temp_min_celisus":24.08,"temp_max_celisus":24.08,"humidity_gram_m3":29,"pressure_pascal":1012,"latitude":32.3167,"longtiude":29.6002,"weather_description":"clear sky"}
{"city_name":"Sohag","city_timezone":7200,"time_utc":1743773158,"city_country":"EG","sunrise_time_utc":1743738047,"sunset_time_utc":1743783075,"sea_level_meter":1011,"temp_celisus":30.08,"temp_min_celisus":30.08,"temp_max_celisus":30.08,"humidity_gram_m3":15,"pressure_pascal":1011,"latitude":31.6948,"longtiude":26.557,"weather_description":"clear sky"}
{"city_name":"Sīwah","city_timezone":7200,"time_utc":1743773158,"city_country":"EG","sunrise_time_utc":1743739441,"sunset_time_utc":1743784645,"sea_level_meter":1012,"temp_celisus":26.84,"temp_min_celisus":26.84,"temp_max_celisus":26.84,"humidity_gram_m3":22,"pressure_pascal":1012,"latitude":25.5195,"longtiude":29.2041,"weather_description":"clear sky"}
{"city_name":"Shibîn el-Qanâṭir","city_timezone":7200,"time_utc":1743773159,"city_country":"EG","sunrise_time_utc":1743738012,"sunset_time_utc":1743783290,"sea_level_meter":1011,"temp_celisus":24.15,"temp_min_celisus":24.15,"temp_max_celisus":24.45,"humidity_gram_m3":21,"pressure_pascal":1011,"latitude":31.3202,"longtiude":30.3127,"weather_description":"clear sky"}
{"city_name":"Sharm el Sheikh","city_timezone":7200,"time_utc":1743773159,"city_country":"EG","sunrise_time_utc":1743737379,"sunset_time_utc":1743782490,"sea_level_meter":1008,"temp_celisus":26.02,"temp_min_celisus":26.02,"temp_max_celisus":26.02,"humidity_gram_m3":34,"pressure_pascal":1008,"latitude":34.305,"longtiude":27.8518,"weather_description":"clear sky"}
{"city_name":"North Sinai Governorate","city_timezone":7200,"time_utc":1743773159,"city_country":"EG","sunrise_time_utc":1743737434,"sunset_time_utc":1743782725,"sea_level_meter":1012,"temp_celisus":22.17,"temp_min_celisus":22.17,"temp_max_celisus":22.17,"humidity_gram_m3":28,"pressure_pascal":1012,"latitude":33.7,"longtiude":30.5,"weather_description":"clear sky"}
{"city_name":"Quwaysinā","city_timezone":7200,"time_utc":1743773160,"city_country":"EG","sunrise_time_utc":1743738042,"sunset_time_utc":1743783338,"sea_level_meter":1011,"temp_celisus":27.46,"temp_min_celisus":27.46,"temp_max_celisus":27.46,"humidity_gram_m3":20,"pressure_pascal":1011,"latitude":31.1578,"longtiude":30.5648,"weather_description":"clear sky"}
{"city_name":"Qena Governorate","city_timezone":7200,"time_utc":1743773160,"city_country":"EG","sunrise_time_utc":1743737818,"sunset_time_utc":1743782798,"sea_level_meter":1010,"temp_celisus":32.08,"temp_min_celisus":32.08,"temp_max_celisus":32.08,"humidity_gram_m3":11,"pressure_pascal":1010,"latitude":32.75,"longtiude":25.8,"weather_description":"clear sky"}
{"city_name":"Qaşr al Farāfirah","city_timezone":7200,"time_utc":1743773161,"city_country":"EG","sunrise_time_utc":1743738924,"sunset_time_utc":1743783985,"sea_level_meter":1012,"temp_celisus":29.44,"temp_min_celisus":29.44,"temp_max_celisus":29.44,"humidity_gram_m3":14,"pressure_pascal":1012,"latitude":27.9698,"longtiude":27.0568,"weather_description":"clear sky"}
{"city_name":"Qalyub","city_timezone":7200,"time_utc":1743773161,"city_country":"EG","sunrise_time_utc":1743738044,"sunset_time_utc":1743783313,"sea_level_meter":1012,"temp_celisus":24.14,"temp_min_celisus":24.14,"temp_max_celisus":24.44,"humidity_gram_m3":33,"pressure_pascal":1012,"latitude":31.2056,"longtiude":30.1792,"weather_description":"clear sky"}
{"city_name":"Matruh Governorate","city_timezone":7200,"time_utc":1743773161,"city_country":"EG","sunrise_time_utc":1743738949,"sunset_time_utc":1743784186,"sea_level_meter":1013,"temp_celisus":25.92,"temp_min_celisus":25.92,"temp_max_celisus":25.92,"humidity_gram_m3":25,"pressure_pascal":1013,"latitude":27.5,"longtiude":29.7,"weather_description":"clear sky"}
{"city_name":"Marsá Maţrūḩ","city_timezone":7200,"time_utc":1743773162,"city_country":"EG","sunrise_time_utc":1743738952,"sunset_time_utc":1743784305,"sea_level_meter":1015,"temp_celisus":18.89,"temp_min_celisus":18.89,"temp_max_celisus":18.89,"humidity_gram_m3":58,"pressure_pascal":1015,"latitude":27.2453,"longtiude":31.3525,"weather_description":"clear sky"}
{"city_name":"Damietta Governorate","city_timezone":7200,"time_utc":1743773177,"city_country":"EG","sunrise_time_utc":1743737872,"sunset_time_utc":1743783224,"sea_level_meter":1013,"temp_celisus":20.35,"temp_min_celisus":20.35,"temp_max_celisus":20.35,"humidity_gram_m3":52,"pressure_pascal":1013,"latitude":31.75,"longtiude":31.35,"weather_description":"clear sky"}
{"city_name":"Damanhur","city_timezone":7200,"time_utc":1743773178,"city_country":"EG","sunrise_time_utc":1743738190,"sunset_time_utc":1743783520,"sea_level_meter":1013,"temp_celisus":23.84,"temp_min_celisus":23.84,"temp_max_celisus":23.84,"humidity_gram_m3":32,"pressure_pascal":1013,"latitude":30.4691,"longtiude":31.0392,"weather_description":"clear sky"}
{"city_name":"Port Said","city_timezone":7200,"time_utc":1743773178,"city_country":"EG","sunrise_time_utc":1743737747,"sunset_time_utc":1743783092,"sea_level_meter":1014,"temp_celisus":17.7,"temp_min_celisus":17.7,"temp_max_celisus":17.7,"humidity_gram_m3":72,"pressure_pascal":1014,"latitude":32.2841,"longtiude":31.2565,"weather_description":"clear sky"}
{"city_name":"Safaga","city_timezone":7200,"time_utc":1743773179,"city_country":"EG","sunrise_time_utc":1743737504,"sunset_time_utc":1743782542,"sea_level_meter":1008,"temp_celisus":26.28,"temp_min_celisus":26.28,"temp_max_celisus":26.28,"humidity_gram_m3":41,"pressure_pascal":1008,"latitude":33.9365,"longtiude":26.7292,"weather_description":"clear sky"}
{"city_name":"Bilqās","city_timezone":7200,"time_utc":1743773179,"city_country":"EG","sunrise_time_utc":1743737971,"sunset_time_utc":1743783313,"sea_level_meter":1013,"temp_celisus":23.45,"temp_min_celisus":23.45,"temp_max_celisus":23.45,"humidity_gram_m3":33,"pressure_pascal":1013,"latitude":31.358,"longtiude":31.2145,"weather_description":"clear sky"}
{"city_name":"Beni Suweif Governorate","city_timezone":7200,"time_utc":1743773179,"city_country":"EG","sunrise_time_utc":1743738233,"sunset_time_utc":1743783415,"sea_level_meter":1012,"temp_celisus":25.49,"temp_min_celisus":25.49,"temp_max_celisus":25.49,"humidity_gram_m3":22,"pressure_pascal":1012,"latitude":30.6,"longtiude":28.9,"weather_description":"clear sky"}
{"city_name":"Banhā","city_timezone":7200,"time_utc":1743773180,"city_country":"EG","sunrise_time_utc":1743738040,"sunset_time_utc":1743783329,"sea_level_meter":1011,"temp_celisus":27.44,"temp_min_celisus":27.44,"temp_max_celisus":27.44,"humidity_gram_m3":20,"pressure_pascal":1011,"latitude":31.1786,"longtiude":30.4591,"weather_description":"clear sky"}
{"city_name":"Zagazig","city_timezone":7200,"time_utc":1743773180,"city_country":"EG","sunrise_time_utc":1743737958,"sunset_time_utc":1743783256,"sea_level_meter":1011,"temp_celisus":27.46,"temp_min_celisus":27.46,"temp_max_celisus":27.46,"humidity_gram_m3":20,"pressure_pascal":1011,"latitude":31.502,"longtiude":30.5877,"weather_description":"few clouds"}
{"city_name":"Asyut Governorate","city_timezone":7200,"time_utc":1743773180,"city_country":"EG","sunrise_time_utc":1743738169,"sunset_time_utc":1743783239,"sea_level_meter":1011,"temp_celisus":29.43,"temp_min_celisus":29.43,"temp_max_celisus":29.43,"humidity_gram_m3":16,"pressure_pascal":1011,"latitude":31.1,"longtiude":27.2,"weather_description":"clear sky"}
{"city_name":"Aswan Governorate","city_timezone":7200,"time_utc":1743773181,"city_country":"EG","sunrise_time_utc":1743737860,"sunset_time_utc":1743782684,"sea_level_meter":1010,"temp_celisus":26.26,"temp_min_celisus":26.26,"temp_max_celisus":26.26,"humidity_gram_m3":26,"pressure_pascal":1010,"latitude":32.9,"longtiude":23.3,"weather_description":"clear sky"}
{"city_name":"Aswān","city_timezone":7200,"time_utc":1743773181,"city_country":"EG","sunrise_time_utc":1743737834,"sunset_time_utc":1743782707,"sea_level_meter":1009,"temp_celisus":32.77,"temp_min_celisus":32.77,"temp_max_celisus":32.77,"humidity_gram_m3":9,"pressure_pascal":1009,"latitude":32.907,"longtiude":24.0934,"weather_description":"clear sky"}
{"city_name":"Suez","city_timezone":7200,"time_utc":1743773181,"city_country":"EG","sunrise_time_utc":1743737734,"sunset_time_utc":1743782989,"sea_level_meter":1012,"temp_celisus":25.53,"temp_min_celisus":25.53,"temp_max_celisus":25.53,"humidity_gram_m3":24,"pressure_pascal":1012,"latitude":32.5263,"longtiude":29.9737,"weather_description":"clear sky"}
{"city_name":"Sharqia Province","city_timezone":7200,"time_utc":1743773182,"city_country":"EG","sunrise_time_utc":1743737883,"sunset_time_utc":1743783189,"sea_level_meter":1012,"temp_celisus":24.53,"temp_min_celisus":24.53,"temp_max_celisus":24.53,"humidity_gram_m3":35,"pressure_pascal":1012,"latitude":31.8,"longtiude":30.7,"weather_description":"broken clouds"}
{"city_name":"Al Wāsiţah","city_timezone":7200,"time_utc":1743773182,"city_country":"EG","sunrise_time_utc":1743738073,"sunset_time_utc":1743783284,"sea_level_meter":1012,"temp_celisus":26.42,"temp_min_celisus":26.42,"temp_max_celisus":26.42,"humidity_gram_m3":19,"pressure_pascal":1012,"latitude":31.2056,"longtiude":29.3378,"weather_description":"clear sky"}
{"city_name":"New Valley Governorate","city_timezone":7200,"time_utc":1743773183,"city_country":"EG","sunrise_time_utc":1743738773,"sunset_time_utc":1743783690,"sea_level_meter":1012,"temp_celisus":29.87,"temp_min_celisus":29.87,"temp_max_celisus":29.87,"humidity_gram_m3":12,"pressure_pascal":1012,"latitude":28.9,"longtiude":24.8,"weather_description":"clear sky"}
{"city_name":"Luxor","city_timezone":7200,"time_utc":1743773183,"city_country":"EG","sunrise_time_utc":1743737847,"sunset_time_utc":1743782820,"sea_level_meter":1010,"temp_celisus":31.79,"temp_min_celisus":31.79,"temp_max_celisus":31.79,"humidity_gram_m3":11,"pressure_pascal":1010,"latitude":32.6421,"longtiude":25.6989,"weather_description":"clear sky"}
{"city_name":"El Qoseir","city_timezone":7200,"time_utc":1743772997,"city_country":"EG","sunrise_time_utc":1743737442,"sunset_time_utc":1743782440,"sea_level_meter":1010,"temp_celisus":25.28,"temp_min_celisus":25.28,"temp_max_celisus":25.28,"humidity_gram_m3":41,"pressure_pascal":1010,"latitude":34.2779,"longtiude":26.1043,"weather_description":"clear sky"}
{"city_name":"Al Qanāţir al Khayrīyah","city_timezone":7200,"time_utc":1743773184,"city_country":"EG","sunrise_time_utc":1743738060,"sunset_time_utc":1743783330,"sea_level_meter":1012,"temp_celisus":24.15,"temp_min_celisus":24.15,"temp_max_celisus":24.45,"humidity_gram_m3":23,"pressure_pascal":1012,"latitude":31.137,"longtiude":30.1933,"weather_description":"clear sky"}
{"city_name":"Qalyubia Governorate","city_timezone":7200,"time_utc":1743773184,"city_country":"EG","sunrise_time_utc":1743738029,"sunset_time_utc":1743783307,"sea_level_meter":1011,"temp_celisus":24.2,"temp_min_celisus":24.2,"temp_max_celisus":24.49,"humidity_gram_m3":22,"pressure_pascal":1011,"latitude":31.25,"longtiude":30.3,"weather_description":"clear sky"}
{"city_name":"Cairo","city_timezone":7200,"time_utc":1743773022,"city_country":"EG","sunrise_time_utc":1743738037,"sunset_time_utc":1743783299,"sea_level_meter":1012,"temp_celisus":24.42,"temp_min_celisus":24.12,"temp_max_celisus":24.42,"humidity_gram_m3":33,"pressure_pascal":1012,"latitude":31.2497,"longtiude":30.0626,"weather_description":"scattered clouds"}
{"city_name":"Minya Governorate","city_timezone":7200,"time_utc":1743773185,"city_country":"EG","sunrise_time_utc":1743738403,"sunset_time_utc":1743783532,"sea_level_meter":1012,"temp_celisus":27.1,"temp_min_celisus":27.1,"temp_max_celisus":27.1,"humidity_gram_m3":20,"pressure_pascal":1012,"latitude":30.0,"longtiude":28.1,"weather_description":"clear sky"}
{"city_name":"Monufia Governorate","city_timezone":7200,"time_utc":1743773185,"city_country":"EG","sunrise_time_utc":1743738082,"sunset_time_utc":1743783374,"sea_level_meter":1011,"temp_celisus":27.29,"temp_min_celisus":27.29,"temp_max_celisus":27.29,"humidity_gram_m3":21,"pressure_pascal":1011,"latitude":31.0,"longtiude":30.5,"weather_description":"clear sky"}
{"city_name":"Al Maţarīyah","city_timezone":7200,"time_utc":1743773187,"city_country":"EG","sunrise_time_utc":1743737811,"sunset_time_utc":1743783150,"sea_level_meter":1013,"temp_celisus":18.45,"temp_min_celisus":18.45,"temp_max_celisus":18.45,"humidity_gram_m3":66,"pressure_pascal":1013,"latitude":32.0311,"longtiude":31.1829,"weather_description":"clear sky"}
{"city_name":"Al Mansurah","city_timezone":7200,"time_utc":1743773188,"city_country":"EG","sunrise_time_utc":1743737972,"sunset_time_utc":1743783301,"sea_level_meter":1012,"temp_celisus":25.11,"temp_min_celisus":25.11,"temp_max_celisus":25.11,"humidity_gram_m3":26,"pressure_pascal":1012,"latitude":31.3807,"longtiude":31.0364,"weather_description":"clear sky"}
{"city_name":"Al Maḩallah al Kubrá","city_timezone":7200,"time_utc":1743773188,"city_country":"EG","sunrise_time_utc":1743738026,"sunset_time_utc":1743783351,"sea_level_meter":1012,"temp_celisus":24.56,"temp_min_celisus":24.56,"temp_max_celisus":24.56,"humidity_gram_m3":30,"pressure_pascal":1012,"latitude":31.165,"longtiude":30.9745,"weather_description":"clear sky"}
{"city_name":"Giza","city_timezone":7200,"time_utc":1743773133,"city_country":"EG","sunrise_time_utc":1743738048,"sunset_time_utc":1743783306,"sea_level_meter":1012,"temp_celisus":24.41,"temp_min_celisus":24.11,"temp_max_celisus":24.41,"humidity_gram_m3":22,"pressure_pascal":1012,"latitude":31.2109,"longtiude":30.0081,"weather_description":"clear sky"}
{"city_name":"Ismailia Governorate","city_timezone":7200,"time_utc":1743773189,"city_country":"EG","sunrise_time_utc":1743737743,"sunset_time_utc":1743783041,"sea_level_meter":1012,"temp_celisus":25.01,"temp_min_celisus":25.01,"temp_max_celisus":25.01,"humidity_gram_m3":27,"pressure_pascal":1012,"latitude":32.4,"longtiude":30.6,"weather_description":"clear sky"}
{"city_name":"Alexandria","city_timezone":7200,"time_utc":1743773042,"city_country":"EG","sunrise_time_utc":1743738307,"sunset_time_utc":1743783650,"sea_level_meter":1014,"temp_celisus":19.1,"temp_min_celisus":19.1,"temp_max_celisus":19.1,"humidity_gram_m3":61,"pressure_pascal":1014,"latitude":29.9553,"longtiude":31.2156,"weather_description":"clear sky"}
{"city_name":"Hurghada","city_timezone":7200,"time_utc":1743773190,"city_country":"EG","sunrise_time_utc":1743737517,"sunset_time_utc":1743782589,"sea_level_meter":1009,"temp_celisus":25.85,"temp_min_celisus":25.85,"temp_max_celisus":25.85,"humidity_gram_m3":35,"pressure_pascal":1009,"latitude":33.8129,"longtiude":27.2574,"weather_description":"clear sky"}
{"city_name":"Gharbia Governorate","city_timezone":7200,"time_utc":1743773190,"city_country":"EG","sunrise_time_utc":1743738068,"sunset_time_utc":1743783388,"sea_level_meter":1012,"temp_celisus":25.13,"temp_min_celisus":25.13,"temp_max_celisus":25.13,"humidity_gram_m3":28,"pressure_pascal":1012,"latitude":31.0,"longtiude":30.9,"weather_description":"clear sky"}
{"city_name":"Faiyum Governorate","city_timezone":7200,"time_utc":1743773190,"city_country":"EG","sunrise_time_utc":1743738243,"sunset_time_utc":1743783452,"sea_level_meter":1012,"temp_celisus":26.47,"temp_min_celisus":26.47,"temp_max_celisus":26.47,"humidity_gram_m3":21,"pressure_pascal":1012,"latitude":30.5,"longtiude":29.3,"weather_description":"clear sky"}
{"city_name":"Beheira","city_timezone":7200,"time_utc":1743773191,"city_country":"EG","sunrise_time_utc":1743738270,"sunset_time_utc":1743783569,"sea_level_meter":1012,"temp_celisus":25.49,"temp_min_celisus":25.49,"temp_max_celisus":25.49,"humidity_gram_m3":24,"pressure_pascal":1012,"latitude":30.2,"longtiude":30.6,"weather_description":"clear sky"}
{"city_name":"Red Sea","city_timezone":7200,"time_utc":1743773102,"city_country":"EG","sunrise_time_utc":1743737525,"sunset_time_utc":1743782593,"sea_level_meter":1009,"temp_celisus":26.92,"temp_min_celisus":26.92,"temp_max_celisus":26.92,"humidity_gram_m3":30,"pressure_pascal":1009,"latitude":33.7884,"longtiude":27.1862,"weather_description":"clear sky"}
{"city_name":"El Gouna","city_timezone":7200,"time_utc":1743773191,"city_country":"EG","sunrise_time_utc":1743737544,"sunset_time_utc":1743782626,"sea_level_meter":1009,"temp_celisus":26.34,"temp_min_celisus":26.34,"temp_max_celisus":26.34,"humidity_gram_m3":35,"pressure_pascal":1009,"latitude":33.6782,"longtiude":27.3942,"weather_description":"clear sky"}
{"city_name":"Makadi Bay","city_timezone":7200,"time_utc":1743773192,"city_country":"EG","sunrise_time_utc":1743737504,"sunset_time_utc":1743782560,"sea_level_meter":1008,"temp_celisus":25.2,"temp_min_celisus":25.2,"temp_max_celisus":25.2,"humidity_gram_m3":46,"pressure_pascal":1008,"latitude":33.8995,"longtiude":26.9912,"weather_description":"clear sky"}
{"city_name":"Port el Ghalib","city_timezone":7200,"time_utc":1743773192,"city_country":"EG","sunrise_time_utc":1743737513,"sunset_time_utc":1743782586,"sea_level_meter":1009,"temp_celisus":25.23,"temp_min_celisus":25.23,"temp_max_celisus":25.23,"humidity_gram_m3":39,"pressure_pascal":1009,"latitude":33.8268,"longtiude":27.2543,"weather_description":"clear sky"}
{"city_name":"Naama Bay","city_timezone":7200,"time_utc":1743773193,"city_country":"EG","sunrise_time_utc":1743737371,"sunset_time_utc":1743782487,"sea_level_meter":1008,"temp_celisus":26.39,"temp_min_celisus":26.39,"temp_max_celisus":26.39,"humidity_gram_m3":34,"pressure_pascal":1008,"latitude":34.3295,"longtiude":27.9138,"weather_description":"clear sky"}
{"city_name":"Ain Sukhna","city_timezone":7200,"time_utc":1743773193,"city_country":"EG","sunrise_time_utc":1743737797,"sunset_time_utc":1743783027,"sea_level_meter":1012,"temp_celisus":24.08,"temp_min_celisus":24.08,"temp_max_celisus":24.08,"humidity_gram_m3":29,"pressure_pascal":1012,"latitude":32.3167,"longtiude":29.6002,"weather_description":"clear sky"}
